[{"name": "Hobby Center For The Performing Arts", "address": "800 Bagby Street", "city": "Houston", "state": "TX", "zipcode": "77002", "box_office_hours": "Monday-Friday: 10am-6pm, Saturday-Sunday: 11am-4pm", "website": "http://www.thehobbycenter.org/", "latitude": "29.761752", "longitude": "-95.368781"}, {"name": "San Jose Center For The Performing Arts", "address": "255 Almaden Boulevard", "city": "San Jose", "state": "CA", "zipcode": "95113", "box_office_hours": "None", "website": "http://www.broadwaysanjose.com", "latitude": "37.330014", "longitude": "-121.891940"}, {"name": "San Diego Civic Theatre", "address": "1100 Third Avenue", "city": "San Diego", "state": "CA", "zipcode": "92101", "box_office_hours": "Monday-Friday: 10am-5pm", "website": "http://www.sandiegotheatres.org/", "latitude": "32.717074", "longitude": "-117.162344"}, {"name": "Buell Theatre", "address": "1031 13TH Street, at Curtis", "city": "Denver", "state": "CO", "zipcode": "80204", "box_office_hours": "Monday-Saturday: 10am-6pm", "website": "http://www.denvercenter.org", "latitude": "39.745833", "longitude": "-104.996944"}, {"name": "Des Moines Civic Center", "address": "221 Walnut Street", "city": "Des Moines", "state": "IA", "zipcode": "50309", "box_office_hours": "Monday-Friday: 9am-5pm\nCall\u00a0(800) 745-3000 for tickets.", "website": "http://www.desmoinesperformingarts.org/", "latitude": "41.586903", "longitude": "-93.619968"}, {"name": "Andrew Jackson Hall At Tennessee Performing Arts Center", "address": "505 Deaderick Street", "city": "Nashville", "state": "TN", "zipcode": "37219", "box_office_hours": "Monday-Friday: 10am-5pm, 90 minutes prior to any performance", "website": "http://tpac.org/", "latitude": "36.165254", "longitude": "-86.781614"}, {"name": "Durham Performing Arts Center", "address": "The American Tobacco District, 123 Vivian St., Durham, NC", "city": "Durham", "state": "NC", "zipcode": "27701", "box_office_hours": "Monday through Friday, 10am to 5pm, and on Saturday, 10am to 2pm", "website": "http://www.dpacnc.com/", "latitude": "35.994033", "longitude": "-78.898619"}, {"name": "Forrest Theatre", "address": "1114 Walnut Street", "city": "Philadelphia", "state": "PA", "zipcode": "19107", "box_office_hours": "Monday-Saturday: 10am-6pm", "website": "http://www.forrest-theatre.com/", "latitude": "39.948683", "longitude": "-75.159702"}, {"name": "Proctors", "address": "432 State Street", "city": "Schenectady", "state": "NY", "zipcode": "12305", "box_office_hours": "Monday-Friday: 10am-6pm, Saturday:10am-5pm, Sunday: 3 hours prior to performance. Performance Days: Open until show time.", "website": "http://www.proctors.org/", "latitude": "42.812058", "longitude": "-73.942085"}, {"name": "Uihlein Hall at Marcus Performing Arts Center", "address": "929 North Waters St", "city": "Milwaukee", "state": "WI", "zipcode": "53202", "box_office_hours": "Monday-Friday: 11:30am-9pm, Saturday-Sunday: 12pm-9pm", "website": "http://www.marcuscenter.org/", "latitude": "43.042632", "longitude": "-87.911682"}, {"name": "Fox Cities Performing Arts Center", "address": "400 West College Avenue", "city": "Appleton", "state": "WI", "zipcode": "54911", "box_office_hours": "Monday-Friday: 10am-6pm, Saturday: 9am-1pm.  Open one hour before every ticketed performance.", "website": "http://www.foxcitiespac.com/", "latitude": "44.262585", "longitude": "-88.411766"}, {"name": "Dolby Theatre", "address": "6801 Hollywood Boulevard", "city": "Los Angeles", "state": "CA", "zipcode": "90028", "box_office_hours": "Monday-Saturday: 10am-6pm, Sunday: 10am-2:30pm, extended hours on performance days and closed on some holidays", "website": "https://dolbytheatre.com/", "latitude": "34.102022", "longitude": "-118.340435"}, {"name": "Bass Performance Hall", "address": "4th and Calhoun Streets", "city": "Fort Worth", "state": "TX", "zipcode": "76102", "box_office_hours": "Monday-Friday: 10am-6pm,  Saturday: 10am-4pm", "website": "http://www.basshall.com/", "latitude": "32.755256", "longitude": "-97.329614"}, {"name": "Academy Of Music: Kimmel Center", "address": "300 South Broad Street", "city": "Philadelphia", "state": "PA", "zipcode": "19102", "box_office_hours": "Monday-Sunday: 10am-6pm", "website": "http://www.kimmelcenter.org", "latitude": "39.946739", "longitude": "-75.165059"}, {"name": "Providence Performing Arts Center", "address": "220 Weybosset Street", "city": "Providence", "state": "RI", "zipcode": "02903", "box_office_hours": "Monday-Friday: 10am-6pm, Saturday: 12pm-5pm. The Box Office will remain open until curtain on the day of any show.", "website": "http://www.ppacri.org/", "latitude": "41.821399", "longitude": "-71.412367"}, {"name": "Detroit Opera House", "address": "1526 Broadway", "city": "Detroit", "state": "MI", "zipcode": "48226", "box_office_hours": "Non-performance weeks: Monday-Friday 10am-5:30pm. Performance days: 10am through the first intermission of the evening\u2019s performance, except Saturdays and Sundays, when the ticket office will open two hours prior to curtain time.", "website": "http://www.michiganopera.org/", "latitude": "42.336169", "longitude": "-83.048699"}, {"name": "Fox Theatre", "address": "660 Peachtree Street NE", "city": "Atlanta", "state": "GA", "zipcode": "30308", "box_office_hours": "None", "website": "http://www.foxtheatre.org/", "latitude": "33.772667", "longitude": "-84.384972"}, {"name": "Benedum Center", "address": "719 Liberty Avenue", "city": "Pittsburgh", "state": "PA", "zipcode": "15222", "box_office_hours": "Monday-Saturday: 9am-9pm, Sunday: 12pm-6pm", "website": "https://trustarts.org/", "latitude": "40.442631", "longitude": "-79.999105"}, {"name": "Saenger Theatre (LA)", "address": "143 North Rampart", "city": "New Orleans", "state": "LA", "zipcode": "70112", "box_office_hours": "None", "website": "http://www.saengernola.com/", "latitude": "29.956567", "longitude": "-90.072179"}, {"name": "Segerstrom Center for the Arts", "address": "600 Town Center Drive", "city": "Costa Mesa", "state": "CA", "zipcode": "92626", "box_office_hours": "Monday-Sunday: 10am-6pm", "website": "http://www.scfta.org", "latitude": "33.692310", "longitude": "-117.881033"}, {"name": "The Smith Center", "address": "361 Symphony Park Avenue", "city": "Las Vegas", "state": "NV", "zipcode": "89106", "box_office_hours": "Monday \u2013 Friday, 10:00am to 6:00pm and Saturday, 10:00am to 2:00pmOn show days the Box Office will open 3 hours before the first curtain and remain open 1 hour after the last curtain time.", "website": "http://www.thesmithcenter.com/", "latitude": "36.168724", "longitude": "-115.152624"}, {"name": "Paramount Theatre", "address": "911 Pine Street", "city": "Seattle", "state": "WA", "zipcode": "98101", "box_office_hours": "Monday-Friday: 10am-6pm, Evenings/Weekends: 90 minutes prior to showtime", "website": "http://stgpresents.org/paramount/", "latitude": "47.613479", "longitude": "-122.331727"}, {"name": "Keller Auditorium", "address": "222 SW Clay", "city": "Portland", "state": "OR", "zipcode": "97201", "box_office_hours": "Open 2 hours prior to performances for day-of-show sales and will-call tickets.", "website": "http://www.pcpa.com/events/keller.php", "latitude": "45.512610", "longitude": "-122.678465"}, {"name": "George S. and Dolores Dor\u00e9 Eccles Theater", "address": "131 South Main Street", "city": "Salt Lake City", "state": "UT", "zipcode": "84054", "box_office_hours": "None", "website": "http://broadway-at-the-eccles.com/", "latitude": "40.839360", "longitude": "-111.911775"}, {"name": "Orpheum Theater - Omaha", "address": "409 South 16th Street", "city": "Omaha", "state": "NE", "zipcode": "68102", "box_office_hours": "Box office at Orpheum Theater is,open 90 minutes prior to show time.,See above for additional options for purchasing tickets in person.", "website": "http://www.omahaperformingarts.org/orpheum/", "latitude": "41.256088", "longitude": "-95.937199"}, {"name": "Orpheum Theatre - Minneapolis", "address": "910 Hennepin Avenue", "city": "Minneapolis", "state": "MN", "zipcode": "55403", "box_office_hours": "Day of performance: open 5pm and 2 hours prior to showtime for matinee performances", "website": "http://www.hennepintheatredistrict.org/history/orpheum/", "latitude": "44.976396", "longitude": "-93.277509"}, {"name": "Fox Theatre - St. Louis", "address": "527 North Grand Boulevard", "city": "St. Louis", "state": "MO", "zipcode": "63103", "box_office_hours": "Non-Show Days: Monday-Friday: 10am-6pm, Saturday: 10am-2pm.  Event Show Days: Monday-Saturday: 10am-until one half hour after the last performance begins.  Sunday: 12pm-until one half hour after the last performance begins", "website": "http://www.fabulousfox.com/", "latitude": "38.639003", "longitude": "-90.232133"}, {"name": "Hippodrome Theatre", "address": "318 W. Baltimore Street", "city": "Baltimore", "state": "MD", "zipcode": "21201", "box_office_hours": "Monday-Saturday: 10am-5pm, Open from 10am until showtime during event days", "website": "http://baltimore.broadway.com/shows/tickets/", "latitude": "39.289440", "longitude": "-76.620380"}, {"name": "Shea's Performing Arts Center", "address": "646 Main Street", "city": "Buffalo", "state": "NY", "zipcode": "14202", "box_office_hours": "Please check venue website for box office hours.", "website": "http://www.sheas.org/", "latitude": "42.833944", "longitude": "-78.751055"}, {"name": "DeVos Hall", "address": "303 Monroe NW", "city": "Grand Rapids", "state": "MI", "zipcode": "49503", "box_office_hours": "Monday-Friday: 10am-6pm.  Saturday: Dependant upon event schedule.\r\nSaturday - Dependant upon event schedule.", "website": "http://www.devoshall.com/", "latitude": "42.968592", "longitude": "-85.672480"}, {"name": "Aronoff Center For The Arts: Procter & Gamble Hall", "address": "650 Walnut Street", "city": "Cincinnati", "state": "OH", "zipcode": "45202", "box_office_hours": "Monday-Friday: 9am-5pm", "website": "http://cincinnatiarts.org/aronoff", "latitude": "39.103688", "longitude": "-84.511164"}, {"name": "Opera House (MA)", "address": "539 Washington Street", "city": "Boston", "state": "MA", "zipcode": "02111", "box_office_hours": "Monday-Saturday: 10am-6pm", "website": "http://boston.broadway.com/venues/theaters/boston-opera-house/", "latitude": "42.353954", "longitude": "-71.062204"}, {"name": "Municipal Auditorium Music Hall", "address": "301 West 13th Street", "city": "Kansas City", "state": "MO", "zipcode": "64105", "box_office_hours": "Monday-Friday: 10am-5pm, Performance Days: opens 2 hours before doors", "website": "http://www.kcconvention.com/?CFID=2582646&CFTOKEN=35830344", "latitude": "39.095749", "longitude": "-94.587538"}, {"name": "Ahmanson Theatre", "address": "135 North Grand Avenue", "city": "Los Angeles", "state": "CA", "zipcode": "90012", "box_office_hours": "Tuesday-Sunday: 12pm-8pm", "website": "http://www.centertheatregroup.org/theatres/ahmanson/", "latitude": "34.057797", "longitude": "-118.247738"}, {"name": "Murat Centre", "address": "502 N. Jersey Street", "city": "Indianapolis", "state": "IN", "zipcode": "46204", "box_office_hours": "Monday-Friday: 10am-5pm, Saturday: 10am-2pm", "website": "http://www.livenation.com/venue/getVenue/venueId/1785", "latitude": "39.774645", "longitude": "-86.151498"}, {"name": "Hershey Theatre", "address": "15 E. Caracas Avenue", "city": "Hershey", "state": "PA", "zipcode": "17033", "box_office_hours": "None", "website": "http://www.hersheytheatre.com/index.php", "latitude": "40.285006", "longitude": "-76.648692"}, {"name": "Kentucky Center For The Performing Arts", "address": "5 Riverfront Plaza", "city": "Louisville", "state": "KY", "zipcode": "40202", "box_office_hours": "Monday-Saturday: 10am-6pm, Sunday: 12pm-5pm", "website": "http://www.kentuckycenter.org/", "latitude": "38.257176", "longitude": "-85.757041"}, {"name": "ASU Gammage", "address": "Apache Blvd and Mill Avenue", "city": "Tempe", "state": "AZ", "zipcode": "85287", "box_office_hours": "Monday-Friday 10am-6pm and event days. The Box Office will be closed on Fridays during the summer months.", "website": "http://www.asugammage.com/", "latitude": "33.416037", "longitude": "-111.939462"}, {"name": "Centennial Hall", "address": "1020 University Boulevard,  Bu", "city": "Tucson", "state": "AZ", "zipcode": "85721", "box_office_hours": "None", "website": "", "latitude": "32.221743", "longitude": "-110.926479"}, {"name": "Fisher Theatre", "address": "3011 West Grand Boulevard", "city": "Detroit", "state": "MI", "zipcode": "48202", "box_office_hours": "On performance weeks: Monday 10am-5pm, Tuesday-Saturday 10am-8pm, Sunday Noon-7:30pm.  On non-performance weeks: Monday-Friday 10am-5pm", "website": "http://www.broadwayindetroit.com/engine.cfm?i=29", "latitude": "42.369441", "longitude": "-83.077062"}, {"name": "Altria Theater", "address": "6 North Laurel Street", "city": "Richmond", "state": "VA", "zipcode": "23220", "box_office_hours": "None", "website": "http://www.altriatheater.com", "latitude": "37.546620", "longitude": "-77.451801"}, {"name": "David A. Straz, Jr. Center for the Performing Arts", "address": "1010 North W.C. MacInnes Place", "city": "Tampa", "state": "FL", "zipcode": "33601", "box_office_hours": "Monday-Saturday: 12pm-8pm, Sunday: 12pm-6pm\nFor information on group salescall (813) 222-1016 or (813) 222-1018.", "website": "http://www.strazcenter.org/", "latitude": "27.951644", "longitude": "-82.463882"}, {"name": "Dr. Phillips Center for the Performing Arts", "address": "445 S Magnolia Ave", "city": "Orlando", "state": "FL", "zipcode": "32801", "box_office_hours": "10:00am\u20134:00pm, Monday\u2013Friday", "website": "http://www.drphillipscenter.org", "latitude": "28.537313", "longitude": "-81.378280"}, {"name": "Schuster Performing Arts Center: Mead Theatre", "address": "1 West Second Street", "city": "Dayton", "state": "OH", "zipcode": "45402", "box_office_hours": "Monday-Friday: 10am-6pm, Saturday: 12pm-4pm, 2 hours prior to performance", "website": "http://www.schustercenter.org/", "latitude": "39.760986", "longitude": "-84.192218"}, {"name": "Orpheum Theatre - Memphis", "address": "203 South Main Street", "city": "Memphis", "state": "TN", "zipcode": "38103", "box_office_hours": "Monday-Friday: 10am-5pm, some weekends depending on events", "website": "http://www.orpheum-memphis.com/", "latitude": "35.140079", "longitude": "-90.055074"}, {"name": "Midland Center for the Arts", "address": "1801 Saint Andrews Street", "city": "Midland", "state": "MI", "zipcode": "48640", "box_office_hours": "None", "website": "http://www.mcfta.org/", "latitude": "43.624746", "longitude": "-84.249603"}, {"name": "Hammons Hall", "address": "525 S. John Q. Hammons Parkway", "city": "Springfield", "state": "MO", "zipcode": "65806", "box_office_hours": "Monday-Friday: 10am-6pm. Saturday: 10am-3pm.  Summer Hours: Monday-Friday: 10am-5pm.  On performance dates, the box office re-opens one hour prior to curtain time.", "website": "http://www.hammonshall.com/", "latitude": "37.204964", "longitude": "-93.282113"}, {"name": "Robinson Center Music Hall", "address": "Markham & Broadway", "city": "Little Rock", "state": "AR", "zipcode": "72201", "box_office_hours": "Open on show days, 1.5 hours prior to the show", "website": "http://www.littlerockmeetings.com/conv-centers/robinson/", "latitude": "34.748457", "longitude": "-92.275083"}, {"name": "Connor Palace", "address": "1615 Euclid Avenue", "city": "Cleveland", "state": "OH", "zipcode": "44115", "box_office_hours": "Monday-Sunday: 11am-6pm. (Weekend hours may vary between Memorial Day and Labor Day; To check operating hours before you visit call the Ticket Ofice Information line at 216-771-8403).", "website": "http://www.playhousesquare.org/", "latitude": "41.501108", "longitude": "-81.680370"}, {"name": "Tennessee Theatre", "address": "604 South Gay Street", "city": "Knoxville", "state": "TN", "zipcode": "37902", "box_office_hours": "None", "website": "http://www.tennesseetheatre.com/", "latitude": "35.964137", "longitude": "-83.917552"}, {"name": "Peace Center For The Performing Arts", "address": "300 South Main Street", "city": "Greenville", "state": "SC", "zipcode": "29601-2606", "box_office_hours": "Monday \u2013 Saturday, 10 a.m. \u2013 6 p.m. and 90 minutes prior to each performance", "website": "https://www.peacecenter.org/", "latitude": "34.846915", "longitude": "-82.400724"}, {"name": "Popejoy Hall", "address": "1 University of New Mexico", "city": "Albuquerque", "state": "NM", "zipcode": "87131", "box_office_hours": "Tuesday-Friday: 10am-6pm, Saturday: 12pm-4pm", "website": "http://popejoyhall.com/", "latitude": "35.084057", "longitude": "-106.620997"}, {"name": "Golden Gate Theatre", "address": "1 Taylor Street", "city": "San Francisco", "state": "CA", "zipcode": "94102", "box_office_hours": "Monday-Saturday: 10am-6pm", "website": "http://www.broadwaysf.com", "latitude": "37.782443", "longitude": "-122.410746"}, {"name": "Adrienne Arsht Center for the Performing Arts of Miami-Dade County", "address": "1300 Biscayne Blvd.", "city": "Miami", "state": "FL", "zipcode": "33132", "box_office_hours": "Monday-Friday: 10am-6pm", "website": "http://www.arshtcenter.org", "latitude": "25.787628", "longitude": "-80.189905"}, {"name": "Music Hall At Fair Park", "address": "909 First Avenue", "city": "Dallas", "state": "TX", "zipcode": "75210", "box_office_hours": "90 minutes prior to showtime", "website": "http://www.liveatthemusichall.com/index.shtm", "latitude": "32.780388", "longitude": "-96.765988"}, {"name": "Majestic Theatre - San Antonio", "address": "230 East Houston Street", "city": "San Antonio", "state": "TX", "zipcode": "78205", "box_office_hours": "Monday-Friday: 10am-5pm", "website": "http://www.majesticempire.com/", "latitude": "29.426171", "longitude": "-98.490037"}, {"name": "Memorial Auditorium", "address": "1515 J Street", "city": "Sacramento", "state": "CA", "zipcode": "95814", "box_office_hours": "None", "website": "http://www.BroadwaySacramento.com", "latitude": "0.000000", "longitude": "0.000000"}, {"name": "Chapman Music Hall At Tulsa Performing Arts Center", "address": "110 East Second Street", "city": "Tulsa", "state": "OK", "zipcode": "74103", "box_office_hours": "Monday-Friday: 10am-5:30pm", "website": "http://www.TulsaPac.com", "latitude": "36.155043", "longitude": "-95.989351"}, {"name": "Overture Center", "address": "201 State Street", "city": "Madison", "state": "WI", "zipcode": "53703", "box_office_hours": "Monday-Friday: 11am-5:30pm, Saturdays: 11am-2pm", "website": "http://www.overturecenter.com/overture_hall.htm", "latitude": "43.074763", "longitude": "-89.388066"}, {"name": "Ohio Theatre", "address": "39 East State Street", "city": "Columbus", "state": "OH", "zipcode": "43215", "box_office_hours": "Monday-Friday: 9am-5pm, Saturday: 10am-2pm, Sunday: open days of performances 2 hours prior to show", "website": "http://www.capa.com/columbus/venues/ohio_about.php", "latitude": "39.960176", "longitude": "-82.999110"}, {"name": "Steven Tanger Center for the Performing Arts", "address": "300 North Elm Street", "city": "Greensboro", "state": "NC", "zipcode": "27401", "box_office_hours": "None", "website": "http://www.tangercenter.com/", "latitude": "0.000000", "longitude": "0.000000"}, {"name": "Stranahan Theater And Great Hall", "address": "4645 Heatherdowns Boulevard", "city": "Toledo", "state": "OH", "zipcode": "43614", "box_office_hours": "Monday-Friday: 9am-5pm, Saturday: 9am-1pm", "website": "http://www.stranahantheater.org", "latitude": "41.593603", "longitude": "-83.654321"}, {"name": "Queen Elizabeth Theatre", "address": "649 Cambie Street", "city": "Vancouver", "state": "BC", "zipcode": "V6B", "box_office_hours": "Event-Specific", "website": "http://www.city.vancouver.bc.ca/theatres/qet/qet.html", "latitude": "49.279966", "longitude": "-123.112352"}, {"name": "Southern Alberta Jubilee Auditorium", "address": "1415 14th Avenue North West", "city": "Calgary", "state": "AB", "zipcode": "T2N", "box_office_hours": "Monday-Friday: 10am-4:30pm, closed 2:30pm-3:30pm, Saturday: 9:30am-12noon", "website": "http://www.jubileeauditorium.com/Southern/Home.aspx", "latitude": "51.063097", "longitude": "-114.092031"}, {"name": "Northern Alberta Jubilee Auditorium", "address": "87th Avenue & 114th Street", "city": "Edmonton", "state": "AB", "zipcode": "T5J", "box_office_hours": "Monday-Friday: 10am-4:30pm, one hour prior to showtime", "website": "http://www.jubileeauditorium.com/", "latitude": "53.522897", "longitude": "-113.525576"}, {"name": "Walton Arts Center", "address": "495 W. Dickson St.", "city": "Fayetteville", "state": "AR", "zipcode": "72702", "box_office_hours": "Monday-Friday: 10am-6pm, Saturday: 12pm-4pm, one hour prior to all performances", "website": "http://www.waltonartscenter.org/", "latitude": "36.065863", "longitude": "-94.165163"}, {"name": "Auditorium Theatre - Rochester", "address": "885 East Main Street", "city": "Rochester", "state": "NY", "zipcode": "14605", "box_office_hours": "Please check venue website for box office hours.", "website": "http://www.rbtl.org/", "latitude": "43.160245", "longitude": "-77.588417"}, {"name": "Wharton Center for the Performing Arts", "address": "Michigan State University", "city": "East Lansing", "state": "MI", "zipcode": "48824-1318", "box_office_hours": "None", "website": "http://www.whartoncenter.com", "latitude": "42.727288", "longitude": "-84.482106"}, {"name": "James M. Nederlander Theatre", "address": "24 W. Randolph", "city": "Chicago", "state": "IL", "zipcode": "60601", "box_office_hours": "Box office hours vary, please call (312) 977-1700 for the current week\u2019s hours.", "website": "http://www.broadwayinchicago.com", "latitude": "41.884584", "longitude": "-87.628739"}, {"name": "Civic Center Music Hall", "address": "201 N. Walker Avenue", "city": "Oklahoma City", "state": "OK", "zipcode": "73102", "box_office_hours": "Monday-Friday: 10am-4pm", "website": "http://www.okcciviccenter.com/index.php", "latitude": "35.469057", "longitude": "-97.522869"}, {"name": "Raymond F. Kravis Center For The Performing Arts", "address": "701 Okeechobee Boulevard", "city": "West Palm Beach", "state": "FL", "zipcode": "33401", "box_office_hours": "Monday-Saturday: 10am-6pm, Sunday: 11am-3pm", "website": "http://www.kravis.org", "latitude": "26.706357", "longitude": "-80.060425"}, {"name": "National Arts Centre:  Opera Stage", "address": "1 Confederation Square", "city": "Ottawa", "state": "ON", "zipcode": "K1P", "box_office_hours": "Monday-Saturday: 10am-9pm, Sundays/Holidays (Event Only): 2 hours prior to event", "website": "http://www.nac-cna.ca/en/", "latitude": "45.370801", "longitude": "-75.681956"}, {"name": "KeyBank State Theatre", "address": "1519 Euclid Avenue", "city": "Cleveland", "state": "OH", "zipcode": "44115", "box_office_hours": "Monday-Sunday: 11am-6pm. (Weekend hours may vary between Memorial Day and Labor Day; To check operating hours before you visit call the Ticket Ofice Information line at 216-771-8403).", "website": "http://www.playhousesquare.org/", "latitude": "41.501187", "longitude": "-81.680650"}, {"name": "Belk Theater", "address": "130 North Tryon St.", "city": "Charlotte", "state": "NC", "zipcode": "28202", "box_office_hours": "Monday-Saturday: 10am-6pm", "website": "http://www.blumenthalarts.org/", "latitude": "35.227112", "longitude": "-80.841061"}, {"name": "Cadillac Palace Theatre", "address": "151 W. Randolph", "city": "Chicago", "state": "IL", "zipcode": "60601", "box_office_hours": "Box office hours vary, please call (312) 977-1700 for the current week\u2019s hours.", "website": "http://www.broadwayinchicago.com", "latitude": "41.884378", "longitude": "-87.632877"}, {"name": "Orpheum Theatre - San Francisco", "address": "1192 Market Street", "city": "San Francisco", "state": "CA", "zipcode": "94102", "box_office_hours": "Monday: 10am-6pm, Tuesday-Saturday: 10am-8:30pm, Sunday: 12pm-4pm", "website": "http://www.broadwaysf.com", "latitude": "37.779078", "longitude": "-122.414637"}, {"name": "Bass Concert Hall at University of Texas at Austin Performing Arts Center", "address": "23rd Street & Robert Dedman Drive", "city": "Austin", "state": "TX", "zipcode": "78705", "box_office_hours": "Tuesday-Friday, 11am-6pm", "website": "http://www.texasperformingarts.org/venues/bass_concert_hall", "latitude": "30.285097", "longitude": "-97.730653"}, {"name": "Pantages Theatre - Los Angeles", "address": "6233 Hollywood Blvd.", "city": "Los Angeles", "state": "CA", "zipcode": "90028", "box_office_hours": "Please check this page on BroadwayinHollywood.com\u00a0for the current Box Office hours.", "website": "http://broadwayla.org/theatre/neighborhood.asp?id=2", "latitude": "34.101796", "longitude": "-118.325823"}, {"name": "Opera House (DC)", "address": "2700 F Street", "city": "Washington", "state": "DC", "zipcode": "20566", "box_office_hours": "Monday-Saturday: 10am-9pm, Sunday: 12pm-9pm", "website": "http://www.kennedy-center.org/about/virtual_tour/opera.html", "latitude": "38.896060", "longitude": "-77.055198"}, {"name": "Bushnell", "address": "166 Capitol Avenue", "city": "Hartford", "state": "CT", "zipcode": "06790", "box_office_hours": "Monday-Saturday: 10am-5pm, Sunday: 12pm-4pm.  The Box Office is open through intermission of all Broadway performances and 30 minutes after curtain rises for all other performances.", "website": "http://www.bushnell.org/", "latitude": "41.762357", "longitude": "-72.680634"}, {"name": "Ovens Auditorium", "address": "2700 East Independence Boulevard", "city": "Charlotte", "state": "NC", "zipcode": "28205", "box_office_hours": "Monday-Friday: 10am-5pm. With events: Saturday: 10am-5pm, Sunday: 1pm-5pm", "website": "http://www.ovensauditorium.com/", "latitude": "35.205093", "longitude": "-80.795302"}, {"name": "Morrison Center for the Performing Arts", "address": "2201 Cesar Chavez Lane", "city": "Boise", "state": "ID", "zipcode": "83725", "box_office_hours": "Monday-Friday: 10am-4pm", "website": "http://mc.boisestate.edu/index.html", "latitude": "43.605362", "longitude": "-116.204570"}, {"name": "Saroyan Theatre", "address": "730 M Street", "city": "Fresno", "state": "CA", "zipcode": "93721", "box_office_hours": "None", "website": "http://www.fresnoconventioncenter.com/william.php", "latitude": "36.733450", "longitude": "-119.784214"}, {"name": "Broward Center For The Performing Arts", "address": "624 Southwest Second Street", "city": "Fort Lauderdale", "state": "FL", "zipcode": "33312", "box_office_hours": "Monday-Friday: 10am-5pm, Saturday-Sunday: 12pm-5pm", "website": "http://www.browardcenter.org/", "latitude": "26.120382", "longitude": "-80.150070"}, {"name": "Clowes Memorial Hall", "address": "4602 Sunset Avenue", "city": "Indianapolis", "state": "IN", "zipcode": "46208", "box_office_hours": "Monday-Friday: 10am-5pm.  Saturday: 10am-2pm (September-May)", "website": "http://www.cloweshall.org/", "latitude": "39.840184", "longitude": "-86.169224"}, {"name": "Eisenhower Theatre", "address": "2700 F Street", "city": "Washington", "state": "DC", "zipcode": "20566", "box_office_hours": "None", "website": "https://www.kennedy-center.org/", "latitude": "38.896060", "longitude": "-77.055198"}, {"name": "Ellie Caulkins Opera House", "address": "14th & Curtis St.", "city": "Denver", "state": "CO", "zipcode": "80204", "box_office_hours": "None", "website": "http://www.artscomplex.com/venues/detail/ellie-caulkins-opera-house", "latitude": "39.745345", "longitude": "-104.997198"}, {"name": "Showcenter Complex", "address": "", "city": "Monterrey", "state": "Mexico", "zipcode": "None", "box_office_hours": "None", "website": "https://www.showcentermty.com/", "latitude": "0.000000", "longitude": "0.000000"}, {"name": "AT&T Performing Arts Center", "address": "2100 Ross Avenue", "city": "Dallas", "state": "TX", "zipcode": "75201", "box_office_hours": "None", "website": "http://www.attpac.org", "latitude": "32.787510", "longitude": "-96.797647"}, {"name": "National Theatre", "address": "1321 Pennsylvania Avenue NW", "city": "Washington", "state": "DC", "zipcode": "20004", "box_office_hours": "Monday-Saturday: 10am-9pm, Sunday: 12pm-8pm. In weeks directly preceding a show: Monday-Saturday: 10am-6pm, Sunday: 12pm-6pm", "website": "http://www.nationaltheatre.org/", "latitude": "38.896203", "longitude": "-77.030457"}, {"name": "James K. Polk Theater At Tennessee Performing Arts Center", "address": "505 Deaderick Street", "city": "Nashville", "state": "TN", "zipcode": "37219", "box_office_hours": "Monday-Friday: 10am-5pm, 90 minutes prior to any performance", "website": "http://www.tpac.org/facilities/polk.asp", "latitude": "36.165254", "longitude": "-86.781614"}]